[
  {
    "stopName": "Astoria-Ditmars Blvd",
    "lines": [
      "N",
      "W"
    ],
    "latitude": 40.775036,
    "longitude": -73.912034
  },
  {
    "stopName": "Astoria Blvd",
    "lines": [
      "N",
      "W"
    ],
    "latitude": 40.770258,
    "longitude": -73.917843
  },
  {
    "stopName": "30 Av",
    "lines": [
      "N",
      "W"
    ],
    "latitude": 40.766779,
    "longitude": -73.921479
  },
  {
    "stopName": "Broadway",
    "lines": [
      "N",
      "W"
    ],
    "latitude": 40.76182,
    "longitude": -73.925508
  },
  {
    "stopName": "36 Av",
    "lines": [
      "N",
      "W"
    ],
    "latitude": 40.756804,
    "longitude": -73.929575
  },
  {
    "stopName": "39 Av-Dutch Kills",
    "lines": [
      "N",
      "W"
    ],
    "latitude": 40.752882,
    "longitude": -73.932755
  },
  {
    "stopName": "Lexington Av/59 St",
    "lines": [
      "N",
      "W",
      "R"
    ],
    "latitude": 40.76266,
    "longitude": -73.967258
  },
  {
    "stopName": "5 Av/59 St",
    "lines": [
      "N",
      "W",
      "R"
    ],
    "latitude": 40.764811,
    "longitude": -73.973347
  },
  {
    "stopName": "57 St-7 Av",
    "lines": [
      "N",
      "Q",
      "R",
      "W"
    ],
    "latitude": 40.764664,
    "longitude": -73.980658
  },
  {
    "stopName": "49 St",
    "lines": [
      "N",
      "R",
      "W"
    ],
    "latitude": 40.759901,
    "longitude": -73.984139
  },
  {
    "stopName": "Times Sq-42 St",
    "lines": [
      "N",
      "Q",
      "R",
      "W"
    ],
    "latitude": 40.754672,
    "longitude": -73.986754
  },
  {
    "stopName": "34 St-Herald Sq",
    "lines": [
      "N",
      "Q",
      "R",
      "W"
    ],
    "latitude": 40.749567,
    "longitude": -73.98795
  },
  {
    "stopName": "28 St",
    "lines": [
      "R",
      "W"
    ],
    "latitude": 40.745494,
    "longitude": -73.988691
  },
  {
    "stopName": "23 St",
    "lines": [
      "R",
      "W"
    ],
    "latitude": 40.741303,
    "longitude": -73.989344
  },
  {
    "stopName": "14 St-Union Sq",
    "lines": [
      "N",
      "Q",
      "R",
      "W"
    ],
    "latitude": 40.735736,
    "longitude": -73.990568
  },
  {
    "stopName": "8 St-NYU",
    "lines": [
      "R",
      "W"
    ],
    "latitude": 40.730328,
    "longitude": -73.992629
  },
  {
    "stopName": "Prince St",
    "lines": [
      "R",
      "W"
    ],
    "latitude": 40.724329,
    "longitude": -73.997702
  },
  {
    "stopName": "Canal St",
    "lines": [
      "R",
      "W"
    ],
    "latitude": 40.719527,
    "longitude": -74.001775
  },
  {
    "stopName": "Canal St",
    "lines": [
      "N",
      "Q"
    ],
    "latitude": 40.718383,
    "longitude": -74.00046
  },
  {
    "stopName": "City Hall",
    "lines": [
      "R",
      "W"
    ],
    "latitude": 40.713282,
    "longitude": -74.006978
  },
  {
    "stopName": "Cortlandt St",
    "lines": [
      "R",
      "W"
    ],
    "latitude": 40.710668,
    "longitude": -74.011029
  },
  {
    "stopName": "Rector St",
    "lines": [
      "R",
      "W"
    ],
    "latitude": 40.70722,
    "longitude": -74.013342
  },
  {
    "stopName": "Whitehall St-South Ferry",
    "lines": [
      "R",
      "W"
    ],
    "latitude": 40.703087,
    "longitude": -74.012994
  },
  {
    "stopName": "Court St",
    "lines": [
      "R"
    ],
    "latitude": 40.6941,
    "longitude": -73.991777
  },
  {
    "stopName": "Jay St-MetroTech",
    "lines": [
      "R"
    ],
    "latitude": 40.69218,
    "longitude": -73.985942
  },
  {
    "stopName": "DeKalb Av",
    "lines": [
      "B",
      "Q",
      "R"
    ],
    "latitude": 40.690635,
    "longitude": -73.981824
  },
  {
    "stopName": "Atlantic Av-Barclays Ctr",
    "lines": [
      "D",
      "N",
      "R"
    ],
    "latitude": 40.683666,
    "longitude": -73.97881
  },
  {
    "stopName": "Union St",
    "lines": [
      "R"
    ],
    "latitude": 40.677316,
    "longitude": -73.98311
  },
  {
    "stopName": "4 Av-9 St",
    "lines": [
      "R"
    ],
    "latitude": 40.670847,
    "longitude": -73.988302
  },
  {
    "stopName": "Prospect Av",
    "lines": [
      "R"
    ],
    "latitude": 40.665414,
    "longitude": -73.992872
  },
  {
    "stopName": "25 St",
    "lines": [
      "R"
    ],
    "latitude": 40.660397,
    "longitude": -73.998091
  },
  {
    "stopName": "36 St",
    "lines": [
      "D",
      "N",
      "R"
    ],
    "latitude": 40.655144,
    "longitude": -74.003549
  },
  {
    "stopName": "45 St",
    "lines": [
      "R"
    ],
    "latitude": 40.648939,
    "longitude": -74.010006
  },
  {
    "stopName": "53 St",
    "lines": [
      "R"
    ],
    "latitude": 40.645069,
    "longitude": -74.014034
  },
  {
    "stopName": "59 St",
    "lines": [
      "N",
      "R"
    ],
    "latitude": 40.641362,
    "longitude": -74.017881
  },
  {
    "stopName": "Bay Ridge Av",
    "lines": [
      "R"
    ],
    "latitude": 40.634967,
    "longitude": -74.023377
  },
  {
    "stopName": "77 St",
    "lines": [
      "R"
    ],
    "latitude": 40.629742,
    "longitude": -74.02551
  },
  {
    "stopName": "86 St",
    "lines": [
      "R"
    ],
    "latitude": 40.622687,
    "longitude": -74.028398
  },
  {
    "stopName": "Bay Ridge-95 St",
    "lines": [
      "R"
    ],
    "latitude": 40.616622,
    "longitude": -74.030876
  },
  {
    "stopName": "Atlantic Av-Barclays Ctr",
    "lines": [
      "B",
      "Q"
    ],
    "latitude": 40.68446,
    "longitude": -73.97689
  },
  {
    "stopName": "7 Av",
    "lines": [
      "B",
      "Q"
    ],
    "latitude": 40.67705,
    "longitude": -73.972367
  },
  {
    "stopName": "Prospect Park",
    "lines": [
      "B",
      "Q",
      "S"
    ],
    "latitude": 40.661614,
    "longitude": -73.962246
  },
  {
    "stopName": "Parkside Av",
    "lines": [
      "Q"
    ],
    "latitude": 40.655292,
    "longitude": -73.961495
  },
  {
    "stopName": "Church Av",
    "lines": [
      "B",
      "Q"
    ],
    "latitude": 40.650527,
    "longitude": -73.962982
  },
  {
    "stopName": "Beverley Rd",
    "lines": [
      "Q"
    ],
    "latitude": 40.644031,
    "longitude": -73.964492
  },
  {
    "stopName": "Cortelyou Rd",
    "lines": [
      "Q"
    ],
    "latitude": 40.640927,
    "longitude": -73.963891
  },
  {
    "stopName": "Newkirk Plaza",
    "lines": [
      "B",
      "Q"
    ],
    "latitude": 40.635082,
    "longitude": -73.962793
  },
  {
    "stopName": "Avenue H",
    "lines": [
      "Q"
    ],
    "latitude": 40.62927,
    "longitude": -73.961639
  },
  {
    "stopName": "Avenue J",
    "lines": [
      "Q"
    ],
    "latitude": 40.625039,
    "longitude": -73.960803
  },
  {
    "stopName": "Avenue M",
    "lines": [
      "Q"
    ],
    "latitude": 40.617618,
    "longitude": -73.959399
  },
  {
    "stopName": "Kings Hwy",
    "lines": [
      "B",
      "Q"
    ],
    "latitude": 40.60867,
    "longitude": -73.957734
  },
  {
    "stopName": "Avenue U",
    "lines": [
      "Q"
    ],
    "latitude": 40.5993,
    "longitude": -73.955929
  },
  {
    "stopName": "Neck Rd",
    "lines": [
      "Q"
    ],
    "latitude": 40.595246,
    "longitude": -73.955161
  },
  {
    "stopName": "Sheepshead Bay",
    "lines": [
      "B",
      "Q"
    ],
    "latitude": 40.586896,
    "longitude": -73.954155
  },
  {
    "stopName": "Brighton Beach",
    "lines": [
      "B",
      "Q"
    ],
    "latitude": 40.577621,
    "longitude": -73.961376
  },
  {
    "stopName": "Ocean Pkwy",
    "lines": [
      "Q"
    ],
    "latitude": 40.576312,
    "longitude": -73.968501
  },
  {
    "stopName": "W 8 St-NY Aquarium",
    "lines": [
      "F",
      "Q"
    ],
    "latitude": 40.576127,
    "longitude": -73.975939
  },
  {
    "stopName": "Coney Island-Stillwell Av",
    "lines": [
      "D",
      "F",
      "N",
      "Q"
    ],
    "latitude": 40.577422,
    "longitude": -73.981233
  },
  {
    "stopName": "9 Av",
    "lines": [
      "D"
    ],
    "latitude": 40.646292,
    "longitude": -73.994324
  },
  {
    "stopName": "Fort Hamilton Pkwy",
    "lines": [
      "D"
    ],
    "latitude": 40.640914,
    "longitude": -73.994304
  },
  {
    "stopName": "50 St",
    "lines": [
      "D"
    ],
    "latitude": 40.63626,
    "longitude": -73.994791
  },
  {
    "stopName": "55 St",
    "lines": [
      "D"
    ],
    "latitude": 40.631435,
    "longitude": -73.995476
  },
  {
    "stopName": "62 St",
    "lines": [
      "D"
    ],
    "latitude": 40.626472,
    "longitude": -73.996895
  },
  {
    "stopName": "71 St",
    "lines": [
      "D"
    ],
    "latitude": 40.619589,
    "longitude": -73.998864
  },
  {
    "stopName": "79 St",
    "lines": [
      "D"
    ],
    "latitude": 40.613501,
    "longitude": -74.00061
  },
  {
    "stopName": "18 Av",
    "lines": [
      "D"
    ],
    "latitude": 40.607954,
    "longitude": -74.001736
  },
  {
    "stopName": "20 Av",
    "lines": [
      "D"
    ],
    "latitude": 40.604556,
    "longitude": -73.998168
  },
  {
    "stopName": "Bay Pkwy",
    "lines": [
      "D"
    ],
    "latitude": 40.601875,
    "longitude": -73.993728
  },
  {
    "stopName": "25 Av",
    "lines": [
      "D"
    ],
    "latitude": 40.597704,
    "longitude": -73.986829
  },
  {
    "stopName": "Bay 50 St",
    "lines": [
      "D"
    ],
    "latitude": 40.588841,
    "longitude": -73.983765
  },
  {
    "stopName": "8 Av",
    "lines": [
      "N"
    ],
    "latitude": 40.635064,
    "longitude": -74.011719
  },
  {
    "stopName": "Fort Hamilton Pkwy",
    "lines": [
      "N"
    ],
    "latitude": 40.631386,
    "longitude": -74.005351
  },
  {
    "stopName": "New Utrecht Av",
    "lines": [
      "N"
    ],
    "latitude": 40.624842,
    "longitude": -73.996353
  },
  {
    "stopName": "18 Av",
    "lines": [
      "N"
    ],
    "latitude": 40.620671,
    "longitude": -73.990414
  },
  {
    "stopName": "20 Av",
    "lines": [
      "N"
    ],
    "latitude": 40.61741,
    "longitude": -73.985026
  },
  {
    "stopName": "Bay Pkwy",
    "lines": [
      "N"
    ],
    "latitude": 40.611815,
    "longitude": -73.981848
  },
  {
    "stopName": "Kings Hwy",
    "lines": [
      "N"
    ],
    "latitude": 40.603923,
    "longitude": -73.980353
  },
  {
    "stopName": "Avenue U",
    "lines": [
      "N"
    ],
    "latitude": 40.597473,
    "longitude": -73.979137
  },
  {
    "stopName": "86 St",
    "lines": [
      "N"
    ],
    "latitude": 40.592721,
    "longitude": -73.97823
  },
  {
    "stopName": "121 St",
    "lines": [
      "J",
      "Z"
    ],
    "latitude": 40.700492,
    "longitude": -73.828294
  },
  {
    "stopName": "111 St",
    "lines": [
      "J"
    ],
    "latitude": 40.697418,
    "longitude": -73.836345
  },
  {
    "stopName": "104 St",
    "lines": [
      "J",
      "Z"
    ],
    "latitude": 40.695178,
    "longitude": -73.84433
  },
  {
    "stopName": "Woodhaven Blvd",
    "lines": [
      "J",
      "Z"
    ],
    "latitude": 40.693879,
    "longitude": -73.851576
  },
  {
    "stopName": "85 St-Forest Pkwy",
    "lines": [
      "J"
    ],
    "latitude": 40.692435,
    "longitude": -73.86001
  },
  {
    "stopName": "75 St-Elderts Ln",
    "lines": [
      "J",
      "Z"
    ],
    "latitude": 40.691324,
    "longitude": -73.867139
  },
  {
    "stopName": "Cypress Hills",
    "lines": [
      "J"
    ],
    "latitude": 40.689941,
    "longitude": -73.87255
  },
  {
    "stopName": "Crescent St",
    "lines": [
      "J",
      "Z"
    ],
    "latitude": 40.683194,
    "longitude": -73.873785
  },
  {
    "stopName": "Norwood Av",
    "lines": [
      "J",
      "Z"
    ],
    "latitude": 40.68141,
    "longitude": -73.880039
  },
  {
    "stopName": "Cleveland St",
    "lines": [
      "J"
    ],
    "latitude": 40.679947,
    "longitude": -73.884639
  },
  {
    "stopName": "Van Siclen Av",
    "lines": [
      "J",
      "Z"
    ],
    "latitude": 40.678024,
    "longitude": -73.891688
  },
  {
    "stopName": "Alabama Av",
    "lines": [
      "J"
    ],
    "latitude": 40.676992,
    "longitude": -73.898654
  },
  {
    "stopName": "Broadway Junction",
    "lines": [
      "J",
      "Z"
    ],
    "latitude": 40.679498,
    "longitude": -73.904512
  },
  {
    "stopName": "Chauncey St",
    "lines": [
      "J",
      "Z"
    ],
    "latitude": 40.682893,
    "longitude": -73.910456
  },
  {
    "stopName": "Halsey St",
    "lines": [
      "J"
    ],
    "latitude": 40.68637,
    "longitude": -73.916559
  },
  {
    "stopName": "Gates Av",
    "lines": [
      "J",
      "Z"
    ],
    "latitude": 40.68963,
    "longitude": -73.92227
  },
  {
    "stopName": "Kosciuszko St",
    "lines": [
      "J"
    ],
    "latitude": 40.693342,
    "longitude": -73.928814
  },
  {
    "stopName": "Myrtle Av",
    "lines": [
      "J",
      "M",
      "Z"
    ],
    "latitude": 40.697207,
    "longitude": -73.935657
  },
  {
    "stopName": "Flushing Av",
    "lines": [
      "J",
      "M"
    ],
    "latitude": 40.70026,
    "longitude": -73.941126
  },
  {
    "stopName": "Lorimer St",
    "lines": [
      "J",
      "M"
    ],
    "latitude": 40.703869,
    "longitude": -73.947408
  },
  {
    "stopName": "Hewes St",
    "lines": [
      "J",
      "M"
    ],
    "latitude": 40.70687,
    "longitude": -73.953431
  },
  {
    "stopName": "Marcy Av",
    "lines": [
      "J",
      "M",
      "Z"
    ],
    "latitude": 40.708359,
    "longitude": -73.957757
  },
  {
    "stopName": "Delancey St-Essex St",
    "lines": [
      "J",
      "M",
      "Z"
    ],
    "latitude": 40.718315,
    "longitude": -73.987437
  },
  {
    "stopName": "Bowery",
    "lines": [
      "J",
      "Z"
    ],
    "latitude": 40.72028,
    "longitude": -73.993915
  },
  {
    "stopName": "Canal St",
    "lines": [
      "J",
      "Z"
    ],
    "latitude": 40.718092,
    "longitude": -73.999892
  },
  {
    "stopName": "Chambers St",
    "lines": [
      "J",
      "Z"
    ],
    "latitude": 40.713243,
    "longitude": -74.003401
  },
  {
    "stopName": "Fulton St",
    "lines": [
      "J",
      "Z"
    ],
    "latitude": 40.710374,
    "longitude": -74.007582
  },
  {
    "stopName": "Broad St",
    "lines": [
      "J",
      "Z"
    ],
    "latitude": 40.706476,
    "longitude": -74.011056
  },
  {
    "stopName": "Middle Village-Metropolitan Av",
    "lines": [
      "M"
    ],
    "latitude": 40.711396,
    "longitude": -73.889601
  },
  {
    "stopName": "Fresh Pond Rd",
    "lines": [
      "M"
    ],
    "latitude": 40.706186,
    "longitude": -73.895877
  },
  {
    "stopName": "Forest Av",
    "lines": [
      "M"
    ],
    "latitude": 40.704423,
    "longitude": -73.903077
  },
  {
    "stopName": "Seneca Av",
    "lines": [
      "M"
    ],
    "latitude": 40.702762,
    "longitude": -73.90774
  },
  {
    "stopName": "Myrtle-Wyckoff Avs",
    "lines": [
      "M"
    ],
    "latitude": 40.69943,
    "longitude": -73.912385
  },
  {
    "stopName": "Knickerbocker Av",
    "lines": [
      "M"
    ],
    "latitude": 40.698664,
    "longitude": -73.919711
  },
  {
    "stopName": "Central Av",
    "lines": [
      "M"
    ],
    "latitude": 40.697857,
    "longitude": -73.927397
  },
  {
    "stopName": "8 Av",
    "lines": [
      "L"
    ],
    "latitude": 40.739777,
    "longitude": -74.002578
  },
  {
    "stopName": "6 Av",
    "lines": [
      "L"
    ],
    "latitude": 40.737335,
    "longitude": -73.996786
  },
  {
    "stopName": "14 St-Union Sq.",
    "lines": [
      "L"
    ],
    "latitude": 40.734789,
    "longitude": -73.99073
  },
  {
    "stopName": "3 Av",
    "lines": [
      "L"
    ],
    "latitude": 40.732849,
    "longitude": -73.986122
  },
  {
    "stopName": "1 Av",
    "lines": [
      "L"
    ],
    "latitude": 40.730953,
    "longitude": -73.981628
  },
  {
    "stopName": "Bedford Av",
    "lines": [
      "L"
    ],
    "latitude": 40.717304,
    "longitude": -73.956872
  },
  {
    "stopName": "Lorimer St",
    "lines": [
      "L"
    ],
    "latitude": 40.714063,
    "longitude": -73.950275
  },
  {
    "stopName": "Graham Av",
    "lines": [
      "L"
    ],
    "latitude": 40.714565,
    "longitude": -73.944053
  },
  {
    "stopName": "Grand St",
    "lines": [
      "L"
    ],
    "latitude": 40.711926,
    "longitude": -73.94067
  },
  {
    "stopName": "Montrose Av",
    "lines": [
      "L"
    ],
    "latitude": 40.707739,
    "longitude": -73.93985
  },
  {
    "stopName": "Morgan Av",
    "lines": [
      "L"
    ],
    "latitude": 40.706152,
    "longitude": -73.933147
  },
  {
    "stopName": "Jefferson St",
    "lines": [
      "L"
    ],
    "latitude": 40.706607,
    "longitude": -73.922913
  },
  {
    "stopName": "DeKalb Av",
    "lines": [
      "L"
    ],
    "latitude": 40.703811,
    "longitude": -73.918425
  },
  {
    "stopName": "Myrtle-Wyckoff Avs",
    "lines": [
      "L"
    ],
    "latitude": 40.699814,
    "longitude": -73.911586
  },
  {
    "stopName": "Halsey St",
    "lines": [
      "L"
    ],
    "latitude": 40.695602,
    "longitude": -73.904084
  },
  {
    "stopName": "Wilson Av",
    "lines": [
      "L"
    ],
    "latitude": 40.688764,
    "longitude": -73.904046
  },
  {
    "stopName": "Bushwick Av-Aberdeen St",
    "lines": [
      "L"
    ],
    "latitude": 40.682829,
    "longitude": -73.905249
  },
  {
    "stopName": "Broadway Junction",
    "lines": [
      "L"
    ],
    "latitude": 40.678856,
    "longitude": -73.90324
  },
  {
    "stopName": "Atlantic Av",
    "lines": [
      "L"
    ],
    "latitude": 40.675345,
    "longitude": -73.903097
  },
  {
    "stopName": "Sutter Av",
    "lines": [
      "L"
    ],
    "latitude": 40.669367,
    "longitude": -73.901975
  },
  {
    "stopName": "Livonia Av",
    "lines": [
      "L"
    ],
    "latitude": 40.664038,
    "longitude": -73.900571
  },
  {
    "stopName": "New Lots Av",
    "lines": [
      "L"
    ],
    "latitude": 40.658733,
    "longitude": -73.899232
  },
  {
    "stopName": "East 105 St",
    "lines": [
      "L"
    ],
    "latitude": 40.650573,
    "longitude": -73.899485
  },
  {
    "stopName": "Canarsie-Rockaway Pkwy",
    "lines": [
      "L"
    ],
    "latitude": 40.646654,
    "longitude": -73.90185
  },
  {
    "stopName": "Franklin Av",
    "lines": [
      "S"
    ],
    "latitude": 40.680596,
    "longitude": -73.955827
  },
  {
    "stopName": "Park Pl",
    "lines": [
      "S"
    ],
    "latitude": 40.674772,
    "longitude": -73.957624
  },
  {
    "stopName": "Botanic Garden",
    "lines": [
      "S"
    ],
    "latitude": 40.670343,
    "longitude": -73.959245
  },
  {
    "stopName": "Inwood-207 St",
    "lines": [
      "A"
    ],
    "latitude": 40.868072,
    "longitude": -73.919899
  },
  {
    "stopName": "Dyckman St",
    "lines": [
      "A"
    ],
    "latitude": 40.865491,
    "longitude": -73.927271
  },
  {
    "stopName": "190 St",
    "lines": [
      "A"
    ],
    "latitude": 40.859022,
    "longitude": -73.93418
  },
  {
    "stopName": "181 St",
    "lines": [
      "A"
    ],
    "latitude": 40.851695,
    "longitude": -73.937969
  },
  {
    "stopName": "175 St",
    "lines": [
      "A"
    ],
    "latitude": 40.847391,
    "longitude": -73.939704
  },
  {
    "stopName": "168 St",
    "lines": [
      "A",
      "C"
    ],
    "latitude": 40.840719,
    "longitude": -73.939561
  },
  {
    "stopName": "163 St-Amsterdam Av",
    "lines": [
      "C"
    ],
    "latitude": 40.836013,
    "longitude": -73.939892
  },
  {
    "stopName": "155 St",
    "lines": [
      "C"
    ],
    "latitude": 40.830518,
    "longitude": -73.941514
  },
  {
    "stopName": "145 St",
    "lines": [
      "A",
      "C"
    ],
    "latitude": 40.824783,
    "longitude": -73.944216
  },
  {
    "stopName": "145 St",
    "lines": [
      "B",
      "D"
    ],
    "latitude": 40.824783,
    "longitude": -73.944216
  },
  {
    "stopName": "135 St",
    "lines": [
      "B",
      "C"
    ],
    "latitude": 40.817894,
    "longitude": -73.947649
  },
  {
    "stopName": "125 St",
    "lines": [
      "A",
      "B",
      "C",
      "D"
    ],
    "latitude": 40.811109,
    "longitude": -73.952343
  },
  {
    "stopName": "116 St",
    "lines": [
      "B",
      "C"
    ],
    "latitude": 40.805085,
    "longitude": -73.954882
  },
  {
    "stopName": "Cathedral Pkwy (110 St)",
    "lines": [
      "B",
      "C"
    ],
    "latitude": 40.800603,
    "longitude": -73.958161
  },
  {
    "stopName": "103 St",
    "lines": [
      "B",
      "C"
    ],
    "latitude": 40.796092,
    "longitude": -73.961454
  },
  {
    "stopName": "96 St",
    "lines": [
      "B",
      "C"
    ],
    "latitude": 40.791642,
    "longitude": -73.964696
  },
  {
    "stopName": "86 St",
    "lines": [
      "B",
      "C"
    ],
    "latitude": 40.785868,
    "longitude": -73.968916
  },
  {
    "stopName": "81 St-Museum of Natural History",
    "lines": [
      "B",
      "C"
    ],
    "latitude": 40.781433,
    "longitude": -73.972143
  },
  {
    "stopName": "72 St",
    "lines": [
      "B",
      "C"
    ],
    "latitude": 40.775594,
    "longitude": -73.97641
  },
  {
    "stopName": "59 St-Columbus Circle",
    "lines": [
      "A",
      "B",
      "C",
      "D"
    ],
    "latitude": 40.768296,
    "longitude": -73.981736
  },
  {
    "stopName": "50 St",
    "lines": [
      "C",
      "E"
    ],
    "latitude": 40.762456,
    "longitude": -73.985984
  },
  {
    "stopName": "42 St-Port Authority Bus Terminal",
    "lines": [
      "A",
      "C",
      "E"
    ],
    "latitude": 40.757308,
    "longitude": -73.989735
  },
  {
    "stopName": "34 St-Penn Station",
    "lines": [
      "A",
      "C",
      "E"
    ],
    "latitude": 40.752287,
    "longitude": -73.993391
  },
  {
    "stopName": "23 St",
    "lines": [
      "C",
      "E"
    ],
    "latitude": 40.745906,
    "longitude": -73.998041
  },
  {
    "stopName": "14 St",
    "lines": [
      "A",
      "C",
      "E"
    ],
    "latitude": 40.740893,
    "longitude": -74.00169
  },
  {
    "stopName": "W 4 St-Wash Sq",
    "lines": [
      "A",
      "C",
      "E"
    ],
    "latitude": 40.732338,
    "longitude": -74.000495
  },
  {
    "stopName": "W 4 St-Wash Sq",
    "lines": [
      "B",
      "D",
      "F",
      "M"
    ],
    "latitude": 40.732338,
    "longitude": -74.000495
  },
  {
    "stopName": "Spring St",
    "lines": [
      "C",
      "E"
    ],
    "latitude": 40.726227,
    "longitude": -74.003739
  },
  {
    "stopName": "Canal St",
    "lines": [
      "A",
      "C",
      "E"
    ],
    "latitude": 40.720824,
    "longitude": -74.005229
  },
  {
    "stopName": "Chambers St",
    "lines": [
      "A",
      "C"
    ],
    "latitude": 40.714111,
    "longitude": -74.008585
  },
  {
    "stopName": "World Trade Center",
    "lines": [
      "E"
    ],
    "latitude": 40.712582,
    "longitude": -74.009781
  },
  {
    "stopName": "Fulton St",
    "lines": [
      "A",
      "C"
    ],
    "latitude": 40.710197,
    "longitude": -74.007691
  },
  {
    "stopName": "High St",
    "lines": [
      "A",
      "C"
    ],
    "latitude": 40.699337,
    "longitude": -73.990531
  },
  {
    "stopName": "Jay St-MetroTech",
    "lines": [
      "A",
      "C",
      "F"
    ],
    "latitude": 40.692338,
    "longitude": -73.987342
  },
  {
    "stopName": "Hoyt-Schermerhorn Sts",
    "lines": [
      "A",
      "C",
      "G"
    ],
    "latitude": 40.688484,
    "longitude": -73.985001
  },
  {
    "stopName": "Lafayette Av",
    "lines": [
      "C"
    ],
    "latitude": 40.686113,
    "longitude": -73.973946
  },
  {
    "stopName": "Clinton-Washington Avs",
    "lines": [
      "C"
    ],
    "latitude": 40.683263,
    "longitude": -73.965838
  },
  {
    "stopName": "Franklin Av",
    "lines": [
      "C"
    ],
    "latitude": 40.68138,
    "longitude": -73.956848
  },
  {
    "stopName": "Nostrand Av",
    "lines": [
      "A",
      "C"
    ],
    "latitude": 40.680438,
    "longitude": -73.950426
  },
  {
    "stopName": "Kingston-Throop Avs",
    "lines": [
      "C"
    ],
    "latitude": 40.679921,
    "longitude": -73.940858
  },
  {
    "stopName": "Utica Av",
    "lines": [
      "A",
      "C"
    ],
    "latitude": 40.679364,
    "longitude": -73.930729
  },
  {
    "stopName": "Ralph Av",
    "lines": [
      "C"
    ],
    "latitude": 40.678822,
    "longitude": -73.920786
  },
  {
    "stopName": "Rockaway Av",
    "lines": [
      "C"
    ],
    "latitude": 40.67834,
    "longitude": -73.911946
  },
  {
    "stopName": "Broadway Junction",
    "lines": [
      "A",
      "C"
    ],
    "latitude": 40.678334,
    "longitude": -73.905316
  },
  {
    "stopName": "Liberty Av",
    "lines": [
      "C"
    ],
    "latitude": 40.674542,
    "longitude": -73.896548
  },
  {
    "stopName": "Van Siclen Av",
    "lines": [
      "C"
    ],
    "latitude": 40.67271,
    "longitude": -73.890358
  },
  {
    "stopName": "Shepherd Av",
    "lines": [
      "C"
    ],
    "latitude": 40.67413,
    "longitude": -73.88075
  },
  {
    "stopName": "Euclid Av",
    "lines": [
      "A",
      "C"
    ],
    "latitude": 40.675377,
    "longitude": -73.872106
  },
  {
    "stopName": "Grant Av",
    "lines": [
      "A"
    ],
    "latitude": 40.677044,
    "longitude": -73.86505
  },
  {
    "stopName": "80 St",
    "lines": [
      "A"
    ],
    "latitude": 40.679371,
    "longitude": -73.858992
  },
  {
    "stopName": "88 St",
    "lines": [
      "A"
    ],
    "latitude": 40.679843,
    "longitude": -73.85147
  },
  {
    "stopName": "Rockaway Blvd",
    "lines": [
      "A"
    ],
    "latitude": 40.680429,
    "longitude": -73.843853
  },
  {
    "stopName": "104 St",
    "lines": [
      "A"
    ],
    "latitude": 40.681711,
    "longitude": -73.837683
  },
  {
    "stopName": "111 St",
    "lines": [
      "A"
    ],
    "latitude": 40.684331,
    "longitude": -73.832163
  },
  {
    "stopName": "Ozone Park-Lefferts Blvd",
    "lines": [
      "A"
    ],
    "latitude": 40.685951,
    "longitude": -73.825798
  },
  {
    "stopName": "Aqueduct Racetrack",
    "lines": [
      "A"
    ],
    "latitude": 40.672097,
    "longitude": -73.835919
  },
  {
    "stopName": "Aqueduct-N Conduit Av",
    "lines": [
      "A"
    ],
    "latitude": 40.668234,
    "longitude": -73.834058
  },
  {
    "stopName": "Howard Beach-JFK Airport",
    "lines": [
      "A"
    ],
    "latitude": 40.660476,
    "longitude": -73.830301
  },
  {
    "stopName": "Broad Channel",
    "lines": [
      "A",
      "S"
    ],
    "latitude": 40.608382,
    "longitude": -73.815925
  },
  {
    "stopName": "Beach 90 St",
    "lines": [
      "A",
      "S"
    ],
    "latitude": 40.588034,
    "longitude": -73.813641
  },
  {
    "stopName": "Beach 98 St",
    "lines": [
      "A",
      "S"
    ],
    "latitude": 40.585307,
    "longitude": -73.820558
  },
  {
    "stopName": "Beach 105 St",
    "lines": [
      "A",
      "S"
    ],
    "latitude": 40.583209,
    "longitude": -73.827559
  },
  {
    "stopName": "Rockaway Park-Beach 116 St",
    "lines": [
      "A",
      "S"
    ],
    "latitude": 40.580903,
    "longitude": -73.835592
  },
  {
    "stopName": "Beach 67 St",
    "lines": [
      "A"
    ],
    "latitude": 40.590927,
    "longitude": -73.796924
  },
  {
    "stopName": "Beach 60 St",
    "lines": [
      "A"
    ],
    "latitude": 40.592374,
    "longitude": -73.788522
  },
  {
    "stopName": "Beach 44 St",
    "lines": [
      "A"
    ],
    "latitude": 40.592943,
    "longitude": -73.776013
  },
  {
    "stopName": "Beach 36 St",
    "lines": [
      "A"
    ],
    "latitude": 40.595398,
    "longitude": -73.768175
  },
  {
    "stopName": "Beach 25 St",
    "lines": [
      "A"
    ],
    "latitude": 40.600066,
    "longitude": -73.761353
  },
  {
    "stopName": "Far Rockaway-Mott Av",
    "lines": [
      "A"
    ],
    "latitude": 40.603995,
    "longitude": -73.755405
  },
  {
    "stopName": "Norwood-205 St",
    "lines": [
      "D"
    ],
    "latitude": 40.874811,
    "longitude": -73.878855
  },
  {
    "stopName": "Bedford Park Blvd",
    "lines": [
      "B",
      "D"
    ],
    "latitude": 40.873244,
    "longitude": -73.887138
  },
  {
    "stopName": "Kingsbridge Rd",
    "lines": [
      "B",
      "D"
    ],
    "latitude": 40.866978,
    "longitude": -73.893509
  },
  {
    "stopName": "Fordham Rd",
    "lines": [
      "B",
      "D"
    ],
    "latitude": 40.861296,
    "longitude": -73.897749
  },
  {
    "stopName": "182-183 Sts",
    "lines": [
      "B",
      "D"
    ],
    "latitude": 40.856093,
    "longitude": -73.900741
  },
  {
    "stopName": "Tremont Av",
    "lines": [
      "B",
      "D"
    ],
    "latitude": 40.85041,
    "longitude": -73.905227
  },
  {
    "stopName": "174-175 Sts",
    "lines": [
      "B",
      "D"
    ],
    "latitude": 40.8459,
    "longitude": -73.910136
  },
  {
    "stopName": "170 St",
    "lines": [
      "B",
      "D"
    ],
    "latitude": 40.839306,
    "longitude": -73.9134
  },
  {
    "stopName": "167 St",
    "lines": [
      "B",
      "D"
    ],
    "latitude": 40.833771,
    "longitude": -73.91844
  },
  {
    "stopName": "161 St-Yankee Stadium",
    "lines": [
      "B",
      "D"
    ],
    "latitude": 40.827905,
    "longitude": -73.925651
  },
  {
    "stopName": "155 St",
    "lines": [
      "B",
      "D"
    ],
    "latitude": 40.830135,
    "longitude": -73.938209
  },
  {
    "stopName": "21 St-Queensbridge",
    "lines": [
      "F"
    ],
    "latitude": 40.754203,
    "longitude": -73.942836
  },
  {
    "stopName": "Roosevelt Island",
    "lines": [
      "F"
    ],
    "latitude": 40.759145,
    "longitude": -73.95326
  },
  {
    "stopName": "Lexington Av/63 St",
    "lines": [
      "F",
      "Q"
    ],
    "latitude": 40.764629,
    "longitude": -73.966113
  },
  {
    "stopName": "57 St",
    "lines": [
      "F"
    ],
    "latitude": 40.763972,
    "longitude": -73.97745
  },
  {
    "stopName": "47-50 Sts-Rockefeller Ctr",
    "lines": [
      "B",
      "D",
      "F",
      "M"
    ],
    "latitude": 40.758663,
    "longitude": -73.981329
  },
  {
    "stopName": "42 St-Bryant Pk",
    "lines": [
      "B",
      "D",
      "F",
      "M"
    ],
    "latitude": 40.754222,
    "longitude": -73.984569
  },
  {
    "stopName": "34 St-Herald Sq",
    "lines": [
      "B",
      "D",
      "F",
      "M"
    ],
    "latitude": 40.749719,
    "longitude": -73.987823
  },
  {
    "stopName": "23 St",
    "lines": [
      "F",
      "M"
    ],
    "latitude": 40.742878,
    "longitude": -73.992821
  },
  {
    "stopName": "14 St",
    "lines": [
      "F",
      "M"
    ],
    "latitude": 40.738228,
    "longitude": -73.996209
  },
  {
    "stopName": "Broadway-Lafayette St",
    "lines": [
      "B",
      "D",
      "F",
      "M"
    ],
    "latitude": 40.725297,
    "longitude": -73.996204
  },
  {
    "stopName": "Grand St",
    "lines": [
      "B",
      "D"
    ],
    "latitude": 40.718267,
    "longitude": -73.993753
  },
  {
    "stopName": "2 Av",
    "lines": [
      "F"
    ],
    "latitude": 40.723402,
    "longitude": -73.989938
  },
  {
    "stopName": "Delancey St-Essex St",
    "lines": [
      "F"
    ],
    "latitude": 40.718611,
    "longitude": -73.988114
  },
  {
    "stopName": "East Broadway",
    "lines": [
      "F"
    ],
    "latitude": 40.713715,
    "longitude": -73.990173
  },
  {
    "stopName": "York St",
    "lines": [
      "F"
    ],
    "latitude": 40.701397,
    "longitude": -73.986751
  },
  {
    "stopName": "Bergen St",
    "lines": [
      "F",
      "G"
    ],
    "latitude": 40.686145,
    "longitude": -73.990862
  },
  {
    "stopName": "Carroll St",
    "lines": [
      "F",
      "G"
    ],
    "latitude": 40.680303,
    "longitude": -73.995048
  },
  {
    "stopName": "Smith-9 Sts",
    "lines": [
      "F",
      "G"
    ],
    "latitude": 40.67358,
    "longitude": -73.995959
  },
  {
    "stopName": "4 Av-9 St",
    "lines": [
      "F",
      "G"
    ],
    "latitude": 40.670272,
    "longitude": -73.989779
  },
  {
    "stopName": "7 Av",
    "lines": [
      "F",
      "G"
    ],
    "latitude": 40.666271,
    "longitude": -73.980305
  },
  {
    "stopName": "15 St-Prospect Park",
    "lines": [
      "F",
      "G"
    ],
    "latitude": 40.660365,
    "longitude": -73.979493
  },
  {
    "stopName": "Fort Hamilton Pkwy",
    "lines": [
      "F",
      "G"
    ],
    "latitude": 40.650782,
    "longitude": -73.975776
  },
  {
    "stopName": "Church Av",
    "lines": [
      "F",
      "G"
    ],
    "latitude": 40.644041,
    "longitude": -73.979678
  },
  {
    "stopName": "Ditmas Av",
    "lines": [
      "F"
    ],
    "latitude": 40.636119,
    "longitude": -73.978172
  },
  {
    "stopName": "18 Av",
    "lines": [
      "F"
    ],
    "latitude": 40.629755,
    "longitude": -73.976971
  },
  {
    "stopName": "Avenue I",
    "lines": [
      "F"
    ],
    "latitude": 40.625322,
    "longitude": -73.976127
  },
  {
    "stopName": "Bay Pkwy",
    "lines": [
      "F"
    ],
    "latitude": 40.620769,
    "longitude": -73.975264
  },
  {
    "stopName": "Avenue N",
    "lines": [
      "F"
    ],
    "latitude": 40.61514,
    "longitude": -73.974197
  },
  {
    "stopName": "Avenue P",
    "lines": [
      "F"
    ],
    "latitude": 40.608944,
    "longitude": -73.973022
  },
  {
    "stopName": "Kings Hwy",
    "lines": [
      "F"
    ],
    "latitude": 40.603217,
    "longitude": -73.972361
  },
  {
    "stopName": "Avenue U",
    "lines": [
      "F"
    ],
    "latitude": 40.596063,
    "longitude": -73.973357
  },
  {
    "stopName": "Avenue X",
    "lines": [
      "F"
    ],
    "latitude": 40.58962,
    "longitude": -73.97425
  },
  {
    "stopName": "Neptune Av",
    "lines": [
      "F"
    ],
    "latitude": 40.581011,
    "longitude": -73.974574
  },
  {
    "stopName": "Jamaica-179 St",
    "lines": [
      "F"
    ],
    "latitude": 40.712646,
    "longitude": -73.783817
  },
  {
    "stopName": "169 St",
    "lines": [
      "F"
    ],
    "latitude": 40.71047,
    "longitude": -73.793604
  },
  {
    "stopName": "Parsons Blvd",
    "lines": [
      "F"
    ],
    "latitude": 40.707564,
    "longitude": -73.803326
  },
  {
    "stopName": "Sutphin Blvd",
    "lines": [
      "F"
    ],
    "latitude": 40.70546,
    "longitude": -73.810708
  },
  {
    "stopName": "Briarwood",
    "lines": [
      "E",
      "F"
    ],
    "latitude": 40.709179,
    "longitude": -73.820574
  },
  {
    "stopName": "Kew Gardens-Union Tpke",
    "lines": [
      "E",
      "F"
    ],
    "latitude": 40.714441,
    "longitude": -73.831008
  },
  {
    "stopName": "75 Av",
    "lines": [
      "E",
      "F"
    ],
    "latitude": 40.718331,
    "longitude": -73.837324
  },
  {
    "stopName": "Forest Hills-71 Av",
    "lines": [
      "E",
      "F",
      "M",
      "R"
    ],
    "latitude": 40.721691,
    "longitude": -73.844521
  },
  {
    "stopName": "67 Av",
    "lines": [
      "M",
      "R"
    ],
    "latitude": 40.726523,
    "longitude": -73.852719
  },
  {
    "stopName": "63 Dr-Rego Park",
    "lines": [
      "M",
      "R"
    ],
    "latitude": 40.729846,
    "longitude": -73.861604
  },
  {
    "stopName": "Woodhaven Blvd",
    "lines": [
      "M",
      "R"
    ],
    "latitude": 40.733106,
    "longitude": -73.869229
  },
  {
    "stopName": "Grand Av-Newtown",
    "lines": [
      "M",
      "R"
    ],
    "latitude": 40.737015,
    "longitude": -73.877223
  },
  {
    "stopName": "Elmhurst Av",
    "lines": [
      "M",
      "R"
    ],
    "latitude": 40.742454,
    "longitude": -73.882017
  },
  {
    "stopName": "Jackson Hts-Roosevelt Av",
    "lines": [
      "E",
      "F",
      "M",
      "R"
    ],
    "latitude": 40.746644,
    "longitude": -73.891338
  },
  {
    "stopName": "65 St",
    "lines": [
      "M",
      "R"
    ],
    "latitude": 40.749669,
    "longitude": -73.898453
  },
  {
    "stopName": "Northern Blvd",
    "lines": [
      "M",
      "R"
    ],
    "latitude": 40.752885,
    "longitude": -73.906006
  },
  {
    "stopName": "46 St",
    "lines": [
      "M",
      "R"
    ],
    "latitude": 40.756312,
    "longitude": -73.913333
  },
  {
    "stopName": "Steinway St",
    "lines": [
      "M",
      "R"
    ],
    "latitude": 40.756879,
    "longitude": -73.92074
  },
  {
    "stopName": "36 St",
    "lines": [
      "M",
      "R"
    ],
    "latitude": 40.752039,
    "longitude": -73.928781
  },
  {
    "stopName": "Queens Plaza",
    "lines": [
      "E",
      "M",
      "R"
    ],
    "latitude": 40.748973,
    "longitude": -73.937243
  },
  {
    "stopName": "Court Sq-23 St",
    "lines": [
      "E",
      "M"
    ],
    "latitude": 40.747846,
    "longitude": -73.946
  },
  {
    "stopName": "Lexington Av/53 St",
    "lines": [
      "E",
      "M"
    ],
    "latitude": 40.757552,
    "longitude": -73.969055
  },
  {
    "stopName": "5 Av/53 St",
    "lines": [
      "E",
      "M"
    ],
    "latitude": 40.760167,
    "longitude": -73.975224
  },
  {
    "stopName": "7 Av",
    "lines": [
      "B",
      "D",
      "E"
    ],
    "latitude": 40.762862,
    "longitude": -73.981637
  },
  {
    "stopName": "Jamaica Center-Parsons/Archer",
    "lines": [
      "E",
      "J",
      "Z"
    ],
    "latitude": 40.702147,
    "longitude": -73.801109
  },
  {
    "stopName": "Sutphin Blvd-Archer Av-JFK Airport",
    "lines": [
      "E",
      "J",
      "Z"
    ],
    "latitude": 40.700486,
    "longitude": -73.807969
  },
  {
    "stopName": "Jamaica-Van Wyck",
    "lines": [
      "E"
    ],
    "latitude": 40.702566,
    "longitude": -73.816859
  },
  {
    "stopName": "Court Sq",
    "lines": [
      "G"
    ],
    "latitude": 40.746554,
    "longitude": -73.943832
  },
  {
    "stopName": "21 St",
    "lines": [
      "G"
    ],
    "latitude": 40.744065,
    "longitude": -73.949724
  },
  {
    "stopName": "Greenpoint Av",
    "lines": [
      "G"
    ],
    "latitude": 40.731352,
    "longitude": -73.954449
  },
  {
    "stopName": "Nassau Av",
    "lines": [
      "G"
    ],
    "latitude": 40.724635,
    "longitude": -73.951277
  },
  {
    "stopName": "Metropolitan Av",
    "lines": [
      "G"
    ],
    "latitude": 40.712792,
    "longitude": -73.951418
  },
  {
    "stopName": "Broadway",
    "lines": [
      "G"
    ],
    "latitude": 40.706092,
    "longitude": -73.950308
  },
  {
    "stopName": "Flushing Av",
    "lines": [
      "G"
    ],
    "latitude": 40.700377,
    "longitude": -73.950234
  },
  {
    "stopName": "Myrtle-Willoughby Avs",
    "lines": [
      "G"
    ],
    "latitude": 40.694568,
    "longitude": -73.949046
  },
  {
    "stopName": "Bedford-Nostrand Avs",
    "lines": [
      "G"
    ],
    "latitude": 40.689627,
    "longitude": -73.953522
  },
  {
    "stopName": "Classon Av",
    "lines": [
      "G"
    ],
    "latitude": 40.688873,
    "longitude": -73.96007
  },
  {
    "stopName": "Clinton-Washington Avs",
    "lines": [
      "G"
    ],
    "latitude": 40.688089,
    "longitude": -73.966839
  },
  {
    "stopName": "Fulton St",
    "lines": [
      "G"
    ],
    "latitude": 40.687119,
    "longitude": -73.975375
  },
  {
    "stopName": "Van Cortlandt Park-242 St",
    "lines": [
      "1"
    ],
    "latitude": 40.889248,
    "longitude": -73.898583
  },
  {
    "stopName": "238 St",
    "lines": [
      "1"
    ],
    "latitude": 40.884667,
    "longitude": -73.90087
  },
  {
    "stopName": "231 St",
    "lines": [
      "1"
    ],
    "latitude": 40.878856,
    "longitude": -73.904834
  },
  {
    "stopName": "Marble Hill-225 St",
    "lines": [
      "1"
    ],
    "latitude": 40.874561,
    "longitude": -73.909831
  },
  {
    "stopName": "215 St",
    "lines": [
      "1"
    ],
    "latitude": 40.869444,
    "longitude": -73.915279
  },
  {
    "stopName": "207 St",
    "lines": [
      "1"
    ],
    "latitude": 40.864621,
    "longitude": -73.918822
  },
  {
    "stopName": "Dyckman St",
    "lines": [
      "1"
    ],
    "latitude": 40.860531,
    "longitude": -73.925536
  },
  {
    "stopName": "191 St",
    "lines": [
      "1"
    ],
    "latitude": 40.855225,
    "longitude": -73.929412
  },
  {
    "stopName": "181 St",
    "lines": [
      "1"
    ],
    "latitude": 40.849505,
    "longitude": -73.933596
  },
  {
    "stopName": "168 St-Washington Hts",
    "lines": [
      "1"
    ],
    "latitude": 40.840556,
    "longitude": -73.940133
  },
  {
    "stopName": "157 St",
    "lines": [
      "1"
    ],
    "latitude": 40.834041,
    "longitude": -73.94489
  },
  {
    "stopName": "145 St",
    "lines": [
      "1"
    ],
    "latitude": 40.826551,
    "longitude": -73.95036
  },
  {
    "stopName": "137 St-City College",
    "lines": [
      "1"
    ],
    "latitude": 40.822008,
    "longitude": -73.953676
  },
  {
    "stopName": "125 St",
    "lines": [
      "1"
    ],
    "latitude": 40.815581,
    "longitude": -73.958372
  },
  {
    "stopName": "116 St-Columbia University",
    "lines": [
      "1"
    ],
    "latitude": 40.807722,
    "longitude": -73.96411
  },
  {
    "stopName": "Cathedral Pkwy (110 St)",
    "lines": [
      "1"
    ],
    "latitude": 40.803967,
    "longitude": -73.966847
  },
  {
    "stopName": "103 St",
    "lines": [
      "1"
    ],
    "latitude": 40.799446,
    "longitude": -73.968379
  },
  {
    "stopName": "96 St",
    "lines": [
      "1",
      "2",
      "3"
    ],
    "latitude": 40.793919,
    "longitude": -73.972323
  },
  {
    "stopName": "86 St",
    "lines": [
      "1"
    ],
    "latitude": 40.788644,
    "longitude": -73.976218
  },
  {
    "stopName": "79 St",
    "lines": [
      "1"
    ],
    "latitude": 40.783934,
    "longitude": -73.979917
  },
  {
    "stopName": "72 St",
    "lines": [
      "1",
      "2",
      "3"
    ],
    "latitude": 40.778453,
    "longitude": -73.98197
  },
  {
    "stopName": "66 St-Lincoln Center",
    "lines": [
      "1"
    ],
    "latitude": 40.77344,
    "longitude": -73.982209
  },
  {
    "stopName": "59 St-Columbus Circle",
    "lines": [
      "1"
    ],
    "latitude": 40.768247,
    "longitude": -73.981929
  },
  {
    "stopName": "50 St",
    "lines": [
      "1"
    ],
    "latitude": 40.761728,
    "longitude": -73.983849
  },
  {
    "stopName": "Times Sq-42 St",
    "lines": [
      "1",
      "2",
      "3"
    ],
    "latitude": 40.75529,
    "longitude": -73.987495
  },
  {
    "stopName": "34 St-Penn Station",
    "lines": [
      "1",
      "2",
      "3"
    ],
    "latitude": 40.750373,
    "longitude": -73.991057
  },
  {
    "stopName": "28 St",
    "lines": [
      "1"
    ],
    "latitude": 40.747215,
    "longitude": -73.993365
  },
  {
    "stopName": "23 St",
    "lines": [
      "1"
    ],
    "latitude": 40.744081,
    "longitude": -73.995657
  },
  {
    "stopName": "18 St",
    "lines": [
      "1"
    ],
    "latitude": 40.74104,
    "longitude": -73.997871
  },
  {
    "stopName": "14 St",
    "lines": [
      "1",
      "2",
      "3"
    ],
    "latitude": 40.737826,
    "longitude": -74.000201
  },
  {
    "stopName": "Christopher St-Sheridan Sq",
    "lines": [
      "1"
    ],
    "latitude": 40.733422,
    "longitude": -74.002906
  },
  {
    "stopName": "Houston St",
    "lines": [
      "1"
    ],
    "latitude": 40.728251,
    "longitude": -74.005367
  },
  {
    "stopName": "Canal St",
    "lines": [
      "1"
    ],
    "latitude": 40.722854,
    "longitude": -74.006277
  },
  {
    "stopName": "Franklin St",
    "lines": [
      "1"
    ],
    "latitude": 40.719318,
    "longitude": -74.006886
  },
  {
    "stopName": "Chambers St",
    "lines": [
      "1",
      "2",
      "3"
    ],
    "latitude": 40.715478,
    "longitude": -74.009266
  },
  {
    "stopName": "WTC Cortlandt",
    "lines": [
      "1"
    ],
    "latitude": 40.711835,
    "longitude": -74.012188
  },
  {
    "stopName": "Rector St",
    "lines": [
      "1"
    ],
    "latitude": 40.707513,
    "longitude": -74.013783
  },
  {
    "stopName": "South Ferry",
    "lines": [
      "1"
    ],
    "latitude": 40.702068,
    "longitude": -74.013664
  },
  {
    "stopName": "Park Place",
    "lines": [
      "2",
      "3"
    ],
    "latitude": 40.713051,
    "longitude": -74.008811
  },
  {
    "stopName": "Fulton St",
    "lines": [
      "2",
      "3"
    ],
    "latitude": 40.709416,
    "longitude": -74.006571
  },
  {
    "stopName": "Wall St",
    "lines": [
      "2",
      "3"
    ],
    "latitude": 40.706821,
    "longitude": -74.0091
  },
  {
    "stopName": "Clark St",
    "lines": [
      "2",
      "3"
    ],
    "latitude": 40.697466,
    "longitude": -73.993086
  },
  {
    "stopName": "Borough Hall",
    "lines": [
      "2",
      "3"
    ],
    "latitude": 40.693219,
    "longitude": -73.989998
  },
  {
    "stopName": "Hoyt St",
    "lines": [
      "2",
      "3"
    ],
    "latitude": 40.690545,
    "longitude": -73.985065
  },
  {
    "stopName": "Nevins St",
    "lines": [
      "2",
      "3",
      "4",
      "5"
    ],
    "latitude": 40.688246,
    "longitude": -73.980492
  },
  {
    "stopName": "Atlantic Av-Barclays Ctr",
    "lines": [
      "2",
      "3",
      "4",
      "5"
    ],
    "latitude": 40.684359,
    "longitude": -73.977666
  },
  {
    "stopName": "Bergen St",
    "lines": [
      "2",
      "3"
    ],
    "latitude": 40.680829,
    "longitude": -73.975098
  },
  {
    "stopName": "Grand Army Plaza",
    "lines": [
      "2",
      "3"
    ],
    "latitude": 40.675235,
    "longitude": -73.971046
  },
  {
    "stopName": "Eastern Pkwy-Brooklyn Museum",
    "lines": [
      "2",
      "3"
    ],
    "latitude": 40.671987,
    "longitude": -73.964375
  },
  {
    "stopName": "Franklin Avenue-Medgar Evers College",
    "lines": [
      "2",
      "3",
      "4",
      "5"
    ],
    "latitude": 40.670682,
    "longitude": -73.958131
  },
  {
    "stopName": "Nostrand Av",
    "lines": [
      "3"
    ],
    "latitude": 40.669847,
    "longitude": -73.950466
  },
  {
    "stopName": "Kingston Av",
    "lines": [
      "3"
    ],
    "latitude": 40.669399,
    "longitude": -73.942161
  },
  {
    "stopName": "Crown Hts-Utica Av",
    "lines": [
      "3",
      "4"
    ],
    "latitude": 40.668897,
    "longitude": -73.932942
  },
  {
    "stopName": "Sutter Av-Rutland Rd",
    "lines": [
      "3"
    ],
    "latitude": 40.664717,
    "longitude": -73.92261
  },
  {
    "stopName": "Saratoga Av",
    "lines": [
      "3"
    ],
    "latitude": 40.661453,
    "longitude": -73.916327
  },
  {
    "stopName": "Rockaway Av",
    "lines": [
      "3"
    ],
    "latitude": 40.662549,
    "longitude": -73.908946
  },
  {
    "stopName": "Junius St",
    "lines": [
      "3"
    ],
    "latitude": 40.663515,
    "longitude": -73.902447
  },
  {
    "stopName": "Pennsylvania Av",
    "lines": [
      "3"
    ],
    "latitude": 40.664635,
    "longitude": -73.894895
  },
  {
    "stopName": "Van Siclen Av",
    "lines": [
      "3"
    ],
    "latitude": 40.665449,
    "longitude": -73.889395
  },
  {
    "stopName": "New Lots Av",
    "lines": [
      "3"
    ],
    "latitude": 40.666235,
    "longitude": -73.884079
  },
  {
    "stopName": "President Street-Medgar Evers College",
    "lines": [
      "2",
      "5"
    ],
    "latitude": 40.667883,
    "longitude": -73.950683
  },
  {
    "stopName": "Sterling St",
    "lines": [
      "2",
      "5"
    ],
    "latitude": 40.662742,
    "longitude": -73.95085
  },
  {
    "stopName": "Winthrop St",
    "lines": [
      "2",
      "5"
    ],
    "latitude": 40.656652,
    "longitude": -73.9502
  },
  {
    "stopName": "Church Av",
    "lines": [
      "2",
      "5"
    ],
    "latitude": 40.650843,
    "longitude": -73.949575
  },
  {
    "stopName": "Beverly Rd",
    "lines": [
      "2",
      "5"
    ],
    "latitude": 40.645098,
    "longitude": -73.948959
  },
  {
    "stopName": "Newkirk Av - Little Haiti",
    "lines": [
      "2",
      "5"
    ],
    "latitude": 40.639967,
    "longitude": -73.948411
  },
  {
    "stopName": "Flatbush Av-Brooklyn College",
    "lines": [
      "2",
      "5"
    ],
    "latitude": 40.632836,
    "longitude": -73.947642
  },
  {
    "stopName": "Pelham Bay Park",
    "lines": [
      "6"
    ],
    "latitude": 40.852462,
    "longitude": -73.828121
  },
  {
    "stopName": "Buhre Av",
    "lines": [
      "6"
    ],
    "latitude": 40.84681,
    "longitude": -73.832569
  },
  {
    "stopName": "Middletown Rd",
    "lines": [
      "6"
    ],
    "latitude": 40.843863,
    "longitude": -73.836322
  },
  {
    "stopName": "Westchester Sq-E Tremont Av",
    "lines": [
      "6"
    ],
    "latitude": 40.839892,
    "longitude": -73.842952
  },
  {
    "stopName": "Zerega Av",
    "lines": [
      "6"
    ],
    "latitude": 40.836488,
    "longitude": -73.847036
  },
  {
    "stopName": "Castle Hill Av",
    "lines": [
      "6"
    ],
    "latitude": 40.834255,
    "longitude": -73.851222
  },
  {
    "stopName": "Parkchester",
    "lines": [
      "6"
    ],
    "latitude": 40.833226,
    "longitude": -73.860816
  },
  {
    "stopName": "St Lawrence Av",
    "lines": [
      "6"
    ],
    "latitude": 40.831509,
    "longitude": -73.867618
  },
  {
    "stopName": "Morrison Av-Soundview",
    "lines": [
      "6"
    ],
    "latitude": 40.829521,
    "longitude": -73.874516
  },
  {
    "stopName": "Elder Av",
    "lines": [
      "6"
    ],
    "latitude": 40.828584,
    "longitude": -73.879159
  },
  {
    "stopName": "Whitlock Av",
    "lines": [
      "6"
    ],
    "latitude": 40.826525,
    "longitude": -73.886283
  },
  {
    "stopName": "Hunts Point Av",
    "lines": [
      "6"
    ],
    "latitude": 40.820948,
    "longitude": -73.890549
  },
  {
    "stopName": "Longwood Av",
    "lines": [
      "6"
    ],
    "latitude": 40.816104,
    "longitude": -73.896435
  },
  {
    "stopName": "E 149 St",
    "lines": [
      "6"
    ],
    "latitude": 40.812118,
    "longitude": -73.904098
  },
  {
    "stopName": "E 143 St-St Mary's St",
    "lines": [
      "6"
    ],
    "latitude": 40.808719,
    "longitude": -73.907657
  },
  {
    "stopName": "Cypress Av",
    "lines": [
      "6"
    ],
    "latitude": 40.805368,
    "longitude": -73.914042
  },
  {
    "stopName": "Brook Av",
    "lines": [
      "6"
    ],
    "latitude": 40.807566,
    "longitude": -73.91924
  },
  {
    "stopName": "3 Av-138 St",
    "lines": [
      "6"
    ],
    "latitude": 40.810476,
    "longitude": -73.926138
  },
  {
    "stopName": "Woodlawn",
    "lines": [
      "4"
    ],
    "latitude": 40.886037,
    "longitude": -73.878751
  },
  {
    "stopName": "Mosholu Pkwy",
    "lines": [
      "4"
    ],
    "latitude": 40.87975,
    "longitude": -73.884655
  },
  {
    "stopName": "Bedford Park Blvd-Lehman College",
    "lines": [
      "4"
    ],
    "latitude": 40.873412,
    "longitude": -73.890064
  },
  {
    "stopName": "Kingsbridge Rd",
    "lines": [
      "4"
    ],
    "latitude": 40.86776,
    "longitude": -73.897174
  },
  {
    "stopName": "Fordham Rd",
    "lines": [
      "4"
    ],
    "latitude": 40.862803,
    "longitude": -73.901034
  },
  {
    "stopName": "183 St",
    "lines": [
      "4"
    ],
    "latitude": 40.858407,
    "longitude": -73.903879
  },
  {
    "stopName": "Burnside Av",
    "lines": [
      "4"
    ],
    "latitude": 40.853453,
    "longitude": -73.907684
  },
  {
    "stopName": "176 St",
    "lines": [
      "4"
    ],
    "latitude": 40.84848,
    "longitude": -73.911794
  },
  {
    "stopName": "Mt Eden Av",
    "lines": [
      "4"
    ],
    "latitude": 40.844434,
    "longitude": -73.914685
  },
  {
    "stopName": "170 St",
    "lines": [
      "4"
    ],
    "latitude": 40.840075,
    "longitude": -73.917791
  },
  {
    "stopName": "167 St",
    "lines": [
      "4"
    ],
    "latitude": 40.835537,
    "longitude": -73.9214
  },
  {
    "stopName": "161 St-Yankee Stadium",
    "lines": [
      "4"
    ],
    "latitude": 40.827994,
    "longitude": -73.925831
  },
  {
    "stopName": "149 St-Grand Concourse",
    "lines": [
      "4"
    ],
    "latitude": 40.818375,
    "longitude": -73.927351
  },
  {
    "stopName": "138 St-Grand Concourse",
    "lines": [
      "4",
      "5"
    ],
    "latitude": 40.813224,
    "longitude": -73.929849
  },
  {
    "stopName": "125 St",
    "lines": [
      "4",
      "5",
      "6"
    ],
    "latitude": 40.804138,
    "longitude": -73.937594
  },
  {
    "stopName": "116 St",
    "lines": [
      "6"
    ],
    "latitude": 40.798629,
    "longitude": -73.941617
  },
  {
    "stopName": "110 St",
    "lines": [
      "6"
    ],
    "latitude": 40.79502,
    "longitude": -73.94425
  },
  {
    "stopName": "103 St",
    "lines": [
      "6"
    ],
    "latitude": 40.7906,
    "longitude": -73.947478
  },
  {
    "stopName": "96 St",
    "lines": [
      "6"
    ],
    "latitude": 40.785672,
    "longitude": -73.95107
  },
  {
    "stopName": "86 St",
    "lines": [
      "4",
      "5",
      "6"
    ],
    "latitude": 40.779492,
    "longitude": -73.955589
  },
  {
    "stopName": "77 St",
    "lines": [
      "6"
    ],
    "latitude": 40.77362,
    "longitude": -73.959874
  },
  {
    "stopName": "68 St-Hunter College",
    "lines": [
      "6"
    ],
    "latitude": 40.768141,
    "longitude": -73.96387
  },
  {
    "stopName": "59 St",
    "lines": [
      "4",
      "5",
      "6"
    ],
    "latitude": 40.762526,
    "longitude": -73.967967
  },
  {
    "stopName": "51 St",
    "lines": [
      "6"
    ],
    "latitude": 40.757107,
    "longitude": -73.97192
  },
  {
    "stopName": "Grand Central-42 St",
    "lines": [
      "4",
      "5",
      "6"
    ],
    "latitude": 40.751776,
    "longitude": -73.976848
  },
  {
    "stopName": "33 St",
    "lines": [
      "6"
    ],
    "latitude": 40.746081,
    "longitude": -73.982076
  },
  {
    "stopName": "28 St",
    "lines": [
      "6"
    ],
    "latitude": 40.74307,
    "longitude": -73.984264
  },
  {
    "stopName": "23 St",
    "lines": [
      "6"
    ],
    "latitude": 40.739864,
    "longitude": -73.986599
  },
  {
    "stopName": "14 St-Union Sq",
    "lines": [
      "4",
      "5",
      "6"
    ],
    "latitude": 40.734673,
    "longitude": -73.989951
  },
  {
    "stopName": "Astor Pl",
    "lines": [
      "6"
    ],
    "latitude": 40.730054,
    "longitude": -73.99107
  },
  {
    "stopName": "Bleecker St",
    "lines": [
      "6"
    ],
    "latitude": 40.725915,
    "longitude": -73.994659
  },
  {
    "stopName": "Spring St",
    "lines": [
      "6"
    ],
    "latitude": 40.722301,
    "longitude": -73.997141
  },
  {
    "stopName": "Canal St",
    "lines": [
      "6"
    ],
    "latitude": 40.718803,
    "longitude": -74.000193
  },
  {
    "stopName": "Brooklyn Bridge-City Hall",
    "lines": [
      "4",
      "5",
      "6"
    ],
    "latitude": 40.713065,
    "longitude": -74.004131
  },
  {
    "stopName": "Fulton St",
    "lines": [
      "4",
      "5"
    ],
    "latitude": 40.710368,
    "longitude": -74.009509
  },
  {
    "stopName": "Wall St",
    "lines": [
      "4",
      "5"
    ],
    "latitude": 40.707557,
    "longitude": -74.011862
  },
  {
    "stopName": "Bowling Green",
    "lines": [
      "4",
      "5"
    ],
    "latitude": 40.704817,
    "longitude": -74.014065
  },
  {
    "stopName": "Borough Hall",
    "lines": [
      "4",
      "5"
    ],
    "latitude": 40.692404,
    "longitude": -73.990151
  },
  {
    "stopName": "Wakefield-241 St",
    "lines": [
      "2"
    ],
    "latitude": 40.903125,
    "longitude": -73.85062
  },
  {
    "stopName": "Nereid Av",
    "lines": [
      "2",
      "5"
    ],
    "latitude": 40.898379,
    "longitude": -73.854376
  },
  {
    "stopName": "233 St",
    "lines": [
      "2",
      "5"
    ],
    "latitude": 40.893193,
    "longitude": -73.857473
  },
  {
    "stopName": "225 St",
    "lines": [
      "2",
      "5"
    ],
    "latitude": 40.888022,
    "longitude": -73.860341
  },
  {
    "stopName": "219 St",
    "lines": [
      "2",
      "5"
    ],
    "latitude": 40.883895,
    "longitude": -73.862633
  },
  {
    "stopName": "Gun Hill Rd",
    "lines": [
      "2",
      "5"
    ],
    "latitude": 40.87785,
    "longitude": -73.866256
  },
  {
    "stopName": "Burke Av",
    "lines": [
      "2",
      "5"
    ],
    "latitude": 40.871356,
    "longitude": -73.867164
  },
  {
    "stopName": "Allerton Av",
    "lines": [
      "2",
      "5"
    ],
    "latitude": 40.865462,
    "longitude": -73.867352
  },
  {
    "stopName": "Pelham Pkwy",
    "lines": [
      "2",
      "5"
    ],
    "latitude": 40.857192,
    "longitude": -73.867615
  },
  {
    "stopName": "Bronx Park East",
    "lines": [
      "2",
      "5"
    ],
    "latitude": 40.848828,
    "longitude": -73.868457
  },
  {
    "stopName": "E 180 St",
    "lines": [
      "2",
      "5"
    ],
    "latitude": 40.841894,
    "longitude": -73.873488
  },
  {
    "stopName": "West Farms Sq-E Tremont Av",
    "lines": [
      "2",
      "5"
    ],
    "latitude": 40.840295,
    "longitude": -73.880049
  },
  {
    "stopName": "174 St",
    "lines": [
      "2",
      "5"
    ],
    "latitude": 40.837288,
    "longitude": -73.887734
  },
  {
    "stopName": "Freeman St",
    "lines": [
      "2",
      "5"
    ],
    "latitude": 40.829993,
    "longitude": -73.891865
  },
  {
    "stopName": "Simpson St",
    "lines": [
      "2",
      "5"
    ],
    "latitude": 40.824073,
    "longitude": -73.893064
  },
  {
    "stopName": "Intervale Av",
    "lines": [
      "2",
      "5"
    ],
    "latitude": 40.822181,
    "longitude": -73.896736
  },
  {
    "stopName": "Prospect Av",
    "lines": [
      "2",
      "5"
    ],
    "latitude": 40.819585,
    "longitude": -73.90177
  },
  {
    "stopName": "Jackson Av",
    "lines": [
      "2",
      "5"
    ],
    "latitude": 40.81649,
    "longitude": -73.907807
  },
  {
    "stopName": "3 Av-149 St",
    "lines": [
      "2",
      "5"
    ],
    "latitude": 40.816109,
    "longitude": -73.917757
  },
  {
    "stopName": "149 St-Grand Concourse",
    "lines": [
      "2",
      "5"
    ],
    "latitude": 40.81841,
    "longitude": -73.926718
  },
  {
    "stopName": "Harlem-148 St",
    "lines": [
      "3"
    ],
    "latitude": 40.82388,
    "longitude": -73.93647
  },
  {
    "stopName": "145 St",
    "lines": [
      "3"
    ],
    "latitude": 40.820421,
    "longitude": -73.936245
  },
  {
    "stopName": "135 St",
    "lines": [
      "2",
      "3"
    ],
    "latitude": 40.814229,
    "longitude": -73.94077
  },
  {
    "stopName": "125 St",
    "lines": [
      "2",
      "3"
    ],
    "latitude": 40.807754,
    "longitude": -73.945495
  },
  {
    "stopName": "116 St",
    "lines": [
      "2",
      "3"
    ],
    "latitude": 40.802098,
    "longitude": -73.949625
  },
  {
    "stopName": "Central Park North (110 St)",
    "lines": [
      "2",
      "3"
    ],
    "latitude": 40.799075,
    "longitude": -73.951822
  },
  {
    "stopName": "Eastchester-Dyre Av",
    "lines": [
      "5"
    ],
    "latitude": 40.8883,
    "longitude": -73.830834
  },
  {
    "stopName": "Baychester Av",
    "lines": [
      "5"
    ],
    "latitude": 40.878663,
    "longitude": -73.838591
  },
  {
    "stopName": "Gun Hill Rd",
    "lines": [
      "5"
    ],
    "latitude": 40.869526,
    "longitude": -73.846384
  },
  {
    "stopName": "Pelham Pkwy",
    "lines": [
      "5"
    ],
    "latitude": 40.858985,
    "longitude": -73.855359
  },
  {
    "stopName": "Morris Park",
    "lines": [
      "5"
    ],
    "latitude": 40.854364,
    "longitude": -73.860495
  },
  {
    "stopName": "Flushing-Main St",
    "lines": [
      "7"
    ],
    "latitude": 40.7596,
    "longitude": -73.83003
  },
  {
    "stopName": "Mets-Willets Point",
    "lines": [
      "7"
    ],
    "latitude": 40.754622,
    "longitude": -73.845625
  },
  {
    "stopName": "111 St",
    "lines": [
      "7"
    ],
    "latitude": 40.75173,
    "longitude": -73.855334
  },
  {
    "stopName": "103 St-Corona Plaza",
    "lines": [
      "7"
    ],
    "latitude": 40.749865,
    "longitude": -73.8627
  },
  {
    "stopName": "Junction Blvd",
    "lines": [
      "7"
    ],
    "latitude": 40.749145,
    "longitude": -73.869527
  },
  {
    "stopName": "90 St-Elmhurst Av",
    "lines": [
      "7"
    ],
    "latitude": 40.748408,
    "longitude": -73.876613
  },
  {
    "stopName": "82 St-Jackson Hts",
    "lines": [
      "7"
    ],
    "latitude": 40.747659,
    "longitude": -73.883697
  },
  {
    "stopName": "74 St-Broadway",
    "lines": [
      "7"
    ],
    "latitude": 40.746848,
    "longitude": -73.891394
  },
  {
    "stopName": "69 St",
    "lines": [
      "7"
    ],
    "latitude": 40.746325,
    "longitude": -73.896403
  },
  {
    "stopName": "Woodside-61 St",
    "lines": [
      "7"
    ],
    "latitude": 40.74563,
    "longitude": -73.902984
  },
  {
    "stopName": "52 St",
    "lines": [
      "7"
    ],
    "latitude": 40.744149,
    "longitude": -73.912549
  },
  {
    "stopName": "46 St-Bliss St",
    "lines": [
      "7"
    ],
    "latitude": 40.743132,
    "longitude": -73.918435
  },
  {
    "stopName": "40 St-Lowery St",
    "lines": [
      "7"
    ],
    "latitude": 40.743781,
    "longitude": -73.924016
  },
  {
    "stopName": "33 St-Rawson St",
    "lines": [
      "7"
    ],
    "latitude": 40.744587,
    "longitude": -73.930997
  },
  {
    "stopName": "Queensboro Plaza",
    "lines": [
      "7"
    ],
    "latitude": 40.750582,
    "longitude": -73.940202
  },
  {
    "stopName": "Queensboro Plaza",
    "lines": [
      "N",
      "W"
    ],
    "latitude": 40.750582,
    "longitude": -73.940202
  },
  {
    "stopName": "Court Sq",
    "lines": [
      "7"
    ],
    "latitude": 40.747023,
    "longitude": -73.945264
  },
  {
    "stopName": "Hunters Point Av",
    "lines": [
      "7"
    ],
    "latitude": 40.742216,
    "longitude": -73.948916
  },
  {
    "stopName": "Vernon Blvd-Jackson Av",
    "lines": [
      "7"
    ],
    "latitude": 40.742626,
    "longitude": -73.953581
  },
  {
    "stopName": "Grand Central-42 St",
    "lines": [
      "7"
    ],
    "latitude": 40.751431,
    "longitude": -73.976041
  },
  {
    "stopName": "5 Av",
    "lines": [
      "7"
    ],
    "latitude": 40.753821,
    "longitude": -73.981963
  },
  {
    "stopName": "Times Sq-42 St",
    "lines": [
      "7"
    ],
    "latitude": 40.755477,
    "longitude": -73.987691
  },
  {
    "stopName": "Times Sq-42 St",
    "lines": [
      "S"
    ],
    "latitude": 40.755983,
    "longitude": -73.986229
  },
  {
    "stopName": "Grand Central-42 St",
    "lines": [
      "S"
    ],
    "latitude": 40.752769,
    "longitude": -73.979189
  },
  {
    "stopName": "34 St-Hudson Yards",
    "lines": [
      "7"
    ],
    "latitude": 40.755882,
    "longitude": -74.00191
  },
  {
    "stopName": "96 St",
    "lines": [
      "Q"
    ],
    "latitude": 40.784318,
    "longitude": -73.947152
  },
  {
    "stopName": "86 St",
    "lines": [
      "Q"
    ],
    "latitude": 40.777891,
    "longitude": -73.951787
  },
  {
    "stopName": "72 St",
    "lines": [
      "Q"
    ],
    "latitude": 40.768799,
    "longitude": -73.958424
  },
  {
    "stopName": "St George",
    "lines": [],
    "latitude": 40.643748,
    "longitude": -74.073643
  },
  {
    "stopName": "Tompkinsville",
    "lines": [],
    "latitude": 40.636949,
    "longitude": -74.074835
  },
  {
    "stopName": "Stapleton",
    "lines": [],
    "latitude": 40.627915,
    "longitude": -74.075162
  },
  {
    "stopName": "Clifton",
    "lines": [],
    "latitude": 40.621319,
    "longitude": -74.071402
  },
  {
    "stopName": "Grasmere",
    "lines": [],
    "latitude": 40.603117,
    "longitude": -74.084087
  },
  {
    "stopName": "Old Town",
    "lines": [],
    "latitude": 40.596612,
    "longitude": -74.087368
  },
  {
    "stopName": "Dongan Hills",
    "lines": [],
    "latitude": 40.588849,
    "longitude": -74.09609
  },
  {
    "stopName": "Jefferson Av",
    "lines": [],
    "latitude": 40.583591,
    "longitude": -74.103338
  },
  {
    "stopName": "Grant City",
    "lines": [],
    "latitude": 40.578965,
    "longitude": -74.109704
  },
  {
    "stopName": "New Dorp",
    "lines": [],
    "latitude": 40.57348,
    "longitude": -74.11721
  },
  {
    "stopName": "Oakwood Heights",
    "lines": [],
    "latitude": 40.56511,
    "longitude": -74.12632
  },
  {
    "stopName": "Bay Terrace",
    "lines": [],
    "latitude": 40.5564,
    "longitude": -74.136907
  },
  {
    "stopName": "Great Kills",
    "lines": [],
    "latitude": 40.551231,
    "longitude": -74.151399
  },
  {
    "stopName": "Eltingville",
    "lines": [],
    "latitude": 40.544601,
    "longitude": -74.16457
  },
  {
    "stopName": "Annadale",
    "lines": [],
    "latitude": 40.54046,
    "longitude": -74.178217
  },
  {
    "stopName": "Huguenot",
    "lines": [],
    "latitude": 40.533674,
    "longitude": -74.191794
  },
  {
    "stopName": "Prince's Bay",
    "lines": [],
    "latitude": 40.525507,
    "longitude": -74.200064
  },
  {
    "stopName": "Pleasant Plains",
    "lines": [],
    "latitude": 40.52241,
    "longitude": -74.217847
  },
  {
    "stopName": "Richmond Valley",
    "lines": [],
    "latitude": 40.519631,
    "longitude": -74.229141
  },
  {
    "stopName": "Tottenville",
    "lines": [],
    "latitude": 40.512764,
    "longitude": -74.251961
  },
  {
    "stopName": "Arthur Kill",
    "lines": [],
    "latitude": 40.516578,
    "longitude": -74.242096
  }
]